{
  "generated_at": "2026-06-08T17:20:29.246325+00:00",
  "count": 9,
  "sensors": [
    {
      "id": "sck-19236",
      "rawId": 19236,
      "source": "smartcitizen",
      "sourceLabel": "Smart Citizen",
      "name": "SCK@Jimbaran-2025",
      "lat": -8.79352,
      "lng": 115.14482,
      "lastReading": "2026-06-08T17:18:42Z",
      "reading": {
        "pm25": 10.5,
        "pm10": 10.5,
        "temp": 25.48,
        "rh": 57.37,
        "noise": 31.66
      },
      "detailsUrl": "https://smartcitizen.me/kits/19236"
    },
    {
      "id": "sck-19600",
      "rawId": 19600,
      "source": "smartcitizen",
      "sourceLabel": "Smart Citizen",
      "name": "SCK-TWO@Jimbaran-2025",
      "lat": -8.79351,
      "lng": 115.14472,
      "lastReading": "2026-06-08T17:17:04Z",
      "reading": {
        "pm25": 10.6,
        "pm10": 11.1,
        "temp": 23.29,
        "rh": 63.38,
        "noise": 48.57
      },
      "detailsUrl": "https://smartcitizen.me/kits/19600"
    },
    {
      "id": "sck-19618",
      "rawId": 19618,
      "source": "smartcitizen",
      "sourceLabel": "Smart Citizen",
      "name": "SCK-THREE@Jimbaran-2025",
      "lat": -8.79533,
      "lng": 115.14784,
      "lastReading": "2026-06-08T17:16:59Z",
      "reading": {
        "pm25": 11.3,
        "pm10": 11.6,
        "temp": 23.42,
        "rh": 59.99,
        "noise": 38.17
      },
      "detailsUrl": "https://smartcitizen.me/kits/19618"
    },
    {
      "id": "sck-19651",
      "rawId": 19651,
      "source": "smartcitizen",
      "sourceLabel": "Smart Citizen",
      "name": "Bali DIY Node — Office",
      "lat": -8.79314,
      "lng": 115.14467,
      "lastReading": "2026-06-08T17:19:29Z",
      "reading": {
        "pm25": 6.0,
        "pm10": 6.0,
        "temp": 29.24715,
        "rh": 44.47121,
        "noise": null
      },
      "detailsUrl": "https://smartcitizen.me/kits/19651"
    },
    {
      "id": "aqicn--519205",
      "rawId": -519205,
      "source": "aqicn",
      "sourceLabel": "AQICN",
      "name": "Kabupaten Badung Sempidi",
      "lat": -8.603890419006348,
      "lng": 115.1780014038086,
      "lastReading": "2026-06-08T17:00:00Z",
      "reading": {
        "pm25": 11.8,
        "pm10": null,
        "temp": null,
        "rh": null,
        "aqi": 49,
        "pm25_from_aqi": true
      },
      "detailsUrl": "https://aqicn.org/station/@519205"
    },
    {
      "id": "purpleair-36601",
      "rawId": 36601,
      "source": "purpleair",
      "sourceLabel": "PurpleAir",
      "name": "Jimbaran by Lumi Clinic",
      "lat": -8.791219,
      "lng": 115.1674,
      "lastReading": "2026-06-08T17:19:27+00:00",
      "reading": {
        "pm25": 0.9,
        "pm10": null,
        "temp": 31.1,
        "rh": 56
      },
      "detailsUrl": "https://map.purpleair.com/?select=36601"
    },
    {
      "id": "purpleair-46949",
      "rawId": 46949,
      "source": "purpleair",
      "sourceLabel": "PurpleAir",
      "name": "Klungkung by Lumi Clinic",
      "lat": -8.533623,
      "lng": 115.39973,
      "lastReading": "2026-06-08T17:20:06+00:00",
      "reading": {
        "pm25": 45.3,
        "pm10": null,
        "temp": 30.0,
        "rh": 62
      },
      "detailsUrl": "https://map.purpleair.com/?select=46949"
    },
    {
      "id": "airgradient-77245",
      "rawId": 77245,
      "source": "airgradient",
      "sourceLabel": "AirGradient",
      "name": "Pemogan - Nafas",
      "lat": -8.707819,
      "lng": 115.205047,
      "offline": false,
      "lastReading": "2026-06-08T17:19:43.000Z",
      "reading": {
        "pm25": 0.0,
        "pm10": 0.0,
        "temp": 26.7,
        "rh": 59
      },
      "detailsUrl": "https://www.airgradient.com/map/"
    },
    {
      "id": "airgradient-77247",
      "rawId": 77247,
      "source": "airgradient",
      "sourceLabel": "AirGradient",
      "name": "Tonja - Nafas",
      "lat": -8.632781,
      "lng": 115.229004,
      "offline": false,
      "lastReading": "2026-06-08T17:20:14.000Z",
      "reading": {
        "pm25": 81.5,
        "pm10": 87.3,
        "temp": 27.8,
        "rh": 55
      },
      "detailsUrl": "https://www.airgradient.com/map/"
    }
  ]
}