{
  "generated_at": "2026-06-08T17:36:21.978795+00:00",
  "count": 7,
  "sensors": [
    {
      "id": "sck-19236",
      "rawId": 19236,
      "source": "smartcitizen",
      "sourceLabel": "Smart Citizen",
      "name": "SCK@Jimbaran-2025",
      "lat": -8.79352,
      "lng": 115.14482,
      "lastReading": "2026-06-08T17:33:42Z",
      "reading": {
        "pm25": 10.6,
        "pm10": 11.4,
        "temp": 25.46,
        "rh": 58.4,
        "noise": 34.74
      },
      "detailsUrl": "https://smartcitizen.me/kits/19236"
    },
    {
      "id": "sck-19600",
      "rawId": 19600,
      "source": "smartcitizen",
      "sourceLabel": "Smart Citizen",
      "name": "SCK-TWO@Jimbaran-2025",
      "lat": -8.79351,
      "lng": 115.14472,
      "lastReading": "2026-06-08T17:32:04Z",
      "reading": {
        "pm25": 10.1,
        "pm10": 10.1,
        "temp": 23.95,
        "rh": 63.26,
        "noise": 49.81
      },
      "detailsUrl": "https://smartcitizen.me/kits/19600"
    },
    {
      "id": "sck-19618",
      "rawId": 19618,
      "source": "smartcitizen",
      "sourceLabel": "Smart Citizen",
      "name": "SCK-THREE@Jimbaran-2025",
      "lat": -8.79533,
      "lng": 115.14784,
      "lastReading": "2026-06-08T17:33:03Z",
      "reading": {
        "pm25": 10.1,
        "pm10": 10.1,
        "temp": 24.18,
        "rh": 60.24,
        "noise": 37.37
      },
      "detailsUrl": "https://smartcitizen.me/kits/19618"
    },
    {
      "id": "sck-19651",
      "rawId": 19651,
      "source": "smartcitizen",
      "sourceLabel": "Smart Citizen",
      "name": "Bali DIY Node — Office",
      "lat": -8.79314,
      "lng": 115.14467,
      "lastReading": "2026-06-08T17:35:29Z",
      "reading": {
        "pm25": 6.0,
        "pm10": 6.0,
        "temp": 29.48186,
        "rh": 45.13687,
        "noise": null
      },
      "detailsUrl": "https://smartcitizen.me/kits/19651"
    },
    {
      "id": "aqicn--519205",
      "rawId": -519205,
      "source": "aqicn",
      "sourceLabel": "AQICN",
      "name": "Kabupaten Badung Sempidi",
      "lat": -8.603890419006348,
      "lng": 115.1780014038086,
      "lastReading": "2026-06-08T17:00:00Z",
      "reading": {
        "pm25": 11.8,
        "pm10": null,
        "temp": null,
        "rh": null,
        "aqi": 49,
        "pm25_from_aqi": true
      },
      "detailsUrl": "https://aqicn.org/station/@519205"
    },
    {
      "id": "airgradient-77245",
      "rawId": 77245,
      "source": "airgradient",
      "sourceLabel": "AirGradient",
      "name": "Pemogan - Nafas",
      "lat": -8.707819,
      "lng": 115.205047,
      "offline": false,
      "lastReading": "2026-06-08T17:35:44.000Z",
      "reading": {
        "pm25": 0.0,
        "pm10": 0.0,
        "temp": 26.6,
        "rh": 59
      },
      "detailsUrl": "https://www.airgradient.com/map/"
    },
    {
      "id": "airgradient-77247",
      "rawId": 77247,
      "source": "airgradient",
      "sourceLabel": "AirGradient",
      "name": "Tonja - Nafas",
      "lat": -8.632781,
      "lng": 115.229004,
      "offline": false,
      "lastReading": "2026-06-08T17:36:14.000Z",
      "reading": {
        "pm25": 114.3,
        "pm10": 123.2,
        "temp": 27.8,
        "rh": 54
      },
      "detailsUrl": "https://www.airgradient.com/map/"
    }
  ]
}