{
  "generated_at": "2026-06-09T03:43:01.134663+00:00",
  "count": 9,
  "sensors": [
    {
      "id": "sck-19236",
      "rawId": 19236,
      "source": "smartcitizen",
      "sourceLabel": "Smart Citizen",
      "name": "SCK@Jimbaran-2025",
      "lat": -8.79352,
      "lng": 115.14482,
      "lastReading": "2026-06-09T03:39:23Z",
      "reading": {
        "pm25": 11.2,
        "pm10": 11.5,
        "temp": 25.93,
        "rh": 56.99,
        "noise": 49.63
      },
      "detailsUrl": "https://smartcitizen.me/kits/19236"
    },
    {
      "id": "sck-19600",
      "rawId": 19600,
      "source": "smartcitizen",
      "sourceLabel": "Smart Citizen",
      "name": "SCK-TWO@Jimbaran-2025",
      "lat": -8.79351,
      "lng": 115.14472,
      "lastReading": "2026-06-09T03:39:20Z",
      "reading": {
        "pm25": 11.1,
        "pm10": 11.1,
        "temp": 23.28,
        "rh": 64.2,
        "noise": 49.95
      },
      "detailsUrl": "https://smartcitizen.me/kits/19600"
    },
    {
      "id": "sck-19618",
      "rawId": 19618,
      "source": "smartcitizen",
      "sourceLabel": "Smart Citizen",
      "name": "SCK-THREE@Jimbaran-2025",
      "lat": -8.79533,
      "lng": 115.14784,
      "lastReading": "2026-06-09T03:39:21Z",
      "reading": {
        "pm25": 10.6,
        "pm10": 11.0,
        "temp": 23.27,
        "rh": 61.32,
        "noise": 49.19
      },
      "detailsUrl": "https://smartcitizen.me/kits/19618"
    },
    {
      "id": "sck-19651",
      "rawId": 19651,
      "source": "smartcitizen",
      "sourceLabel": "Smart Citizen",
      "name": "Bali DIY Node — Office",
      "lat": -8.79314,
      "lng": 115.14467,
      "lastReading": "2026-06-09T03:42:53Z",
      "reading": {
        "pm25": 6.0,
        "pm10": 6.0,
        "temp": 28.73463,
        "rh": 45.39869,
        "noise": null
      },
      "detailsUrl": "https://smartcitizen.me/kits/19651"
    },
    {
      "id": "aqicn--519205",
      "rawId": -519205,
      "source": "aqicn",
      "sourceLabel": "AQICN",
      "name": "Kabupaten Badung Sempidi",
      "lat": -8.603890419006348,
      "lng": 115.1780014038086,
      "lastReading": "2026-06-09T03:00:00Z",
      "reading": {
        "pm25": 12.1,
        "pm10": null,
        "temp": null,
        "rh": null,
        "aqi": 51,
        "pm25_from_aqi": true
      },
      "detailsUrl": "https://aqicn.org/station/@519205"
    },
    {
      "id": "purpleair-36601",
      "rawId": 36601,
      "source": "purpleair",
      "sourceLabel": "PurpleAir",
      "name": "Jimbaran by Lumi Clinic",
      "lat": -8.791219,
      "lng": 115.1674,
      "lastReading": "2026-06-09T03:41:43+00:00",
      "reading": {
        "pm25": 2.4,
        "pm10": null,
        "temp": 33.9,
        "rh": 49
      },
      "detailsUrl": "https://map.purpleair.com/?select=36601"
    },
    {
      "id": "purpleair-46949",
      "rawId": 46949,
      "source": "purpleair",
      "sourceLabel": "PurpleAir",
      "name": "Klungkung by Lumi Clinic",
      "lat": -8.533623,
      "lng": 115.39973,
      "lastReading": "2026-06-09T03:42:22+00:00",
      "reading": {
        "pm25": 40.1,
        "pm10": null,
        "temp": 32.2,
        "rh": 49
      },
      "detailsUrl": "https://map.purpleair.com/?select=46949"
    },
    {
      "id": "airgradient-77245",
      "rawId": 77245,
      "source": "airgradient",
      "sourceLabel": "AirGradient",
      "name": "Pemogan - Nafas",
      "lat": -8.707819,
      "lng": 115.205047,
      "offline": false,
      "lastReading": "2026-06-09T03:42:09.000Z",
      "reading": {
        "pm25": 0.0,
        "pm10": 0.0,
        "temp": 28.4,
        "rh": 55
      },
      "detailsUrl": "https://www.airgradient.com/map/"
    },
    {
      "id": "airgradient-77247",
      "rawId": 77247,
      "source": "airgradient",
      "sourceLabel": "AirGradient",
      "name": "Tonja - Nafas",
      "lat": -8.632781,
      "lng": 115.229004,
      "offline": false,
      "lastReading": "2026-06-09T03:42:25.000Z",
      "reading": {
        "pm25": 26.0,
        "pm10": 28.7,
        "temp": 29.9,
        "rh": 47
      },
      "detailsUrl": "https://www.airgradient.com/map/"
    }
  ]
}