{
  "generated_at": "2026-06-08T14:28:13.086935+00:00",
  "count": 7,
  "sensors": [
    {
      "id": "sck-19236",
      "rawId": 19236,
      "source": "smartcitizen",
      "sourceLabel": "Smart Citizen",
      "name": "SCK@Jimbaran-2025",
      "lat": -8.79352,
      "lng": 115.14482,
      "lastReading": "2026-06-08T14:26:31Z",
      "reading": {
        "pm25": 15.4,
        "pm10": 15.4,
        "temp": 25.59,
        "rh": 58.77,
        "noise": 32.75
      },
      "detailsUrl": "https://smartcitizen.me/kits/19236"
    },
    {
      "id": "sck-19600",
      "rawId": 19600,
      "source": "smartcitizen",
      "sourceLabel": "Smart Citizen",
      "name": "SCK-TWO@Jimbaran-2025",
      "lat": -8.79351,
      "lng": 115.14472,
      "lastReading": "2026-06-08T14:24:43Z",
      "reading": {
        "pm25": 16.5,
        "pm10": 17.3,
        "temp": 23.67,
        "rh": 64.99,
        "noise": 49.15
      },
      "detailsUrl": "https://smartcitizen.me/kits/19600"
    },
    {
      "id": "sck-19618",
      "rawId": 19618,
      "source": "smartcitizen",
      "sourceLabel": "Smart Citizen",
      "name": "SCK-THREE@Jimbaran-2025",
      "lat": -8.79533,
      "lng": 115.14784,
      "lastReading": "2026-06-08T14:22:22Z",
      "reading": {
        "pm25": 15.0,
        "pm10": 15.0,
        "temp": 23.08,
        "rh": 62.08,
        "noise": 39.33
      },
      "detailsUrl": "https://smartcitizen.me/kits/19618"
    },
    {
      "id": "sck-19651",
      "rawId": 19651,
      "source": "smartcitizen",
      "sourceLabel": "Smart Citizen",
      "name": "Bali DIY Node — Office",
      "lat": -8.79314,
      "lng": 115.14467,
      "lastReading": "2026-06-08T14:27:22Z",
      "reading": {
        "pm25": 6.0,
        "pm10": 6.0,
        "temp": 29.32787,
        "rh": 46.1272,
        "noise": null
      },
      "detailsUrl": "https://smartcitizen.me/kits/19651"
    },
    {
      "id": "aqicn--519205",
      "rawId": -519205,
      "source": "aqicn",
      "sourceLabel": "AQICN",
      "name": "Kabupaten Badung Sempidi",
      "lat": -8.603890419006348,
      "lng": 115.1780014038086,
      "lastReading": "2026-06-08T14:00:00Z",
      "reading": {
        "pm25": 11.8,
        "pm10": null,
        "temp": null,
        "rh": null,
        "aqi": 49,
        "pm25_from_aqi": true
      },
      "detailsUrl": "https://aqicn.org/station/@519205"
    },
    {
      "id": "airgradient-77245",
      "rawId": 77245,
      "source": "airgradient",
      "sourceLabel": "AirGradient",
      "name": "Pemogan - Nafas",
      "lat": -8.707819,
      "lng": 115.205047,
      "offline": false,
      "lastReading": "2026-06-08T14:27:42.000Z",
      "reading": {
        "pm25": 0.0,
        "pm10": 0.0,
        "temp": 26.9,
        "rh": 58
      },
      "detailsUrl": "https://www.airgradient.com/map/"
    },
    {
      "id": "airgradient-77247",
      "rawId": 77247,
      "source": "airgradient",
      "sourceLabel": "AirGradient",
      "name": "Tonja - Nafas",
      "lat": -8.632781,
      "lng": 115.229004,
      "offline": false,
      "lastReading": "2026-06-08T14:27:12.000Z",
      "reading": {
        "pm25": 50.7,
        "pm10": 63.2,
        "temp": 28.1,
        "rh": 55
      },
      "detailsUrl": "https://www.airgradient.com/map/"
    }
  ]
}