{
  "generated_at": "2026-06-09T00:06:58.479773+00:00",
  "count": 7,
  "sensors": [
    {
      "id": "sck-19236",
      "rawId": 19236,
      "source": "smartcitizen",
      "sourceLabel": "Smart Citizen",
      "name": "SCK@Jimbaran-2025",
      "lat": -8.79352,
      "lng": 115.14482,
      "lastReading": "2026-06-09T00:04:03Z",
      "reading": {
        "pm25": 12.6,
        "pm10": 12.6,
        "temp": 25.36,
        "rh": 57.65,
        "noise": 31.45
      },
      "detailsUrl": "https://smartcitizen.me/kits/19236"
    },
    {
      "id": "sck-19600",
      "rawId": 19600,
      "source": "smartcitizen",
      "sourceLabel": "Smart Citizen",
      "name": "SCK-TWO@Jimbaran-2025",
      "lat": -8.79351,
      "lng": 115.14472,
      "lastReading": "2026-06-09T00:05:27Z",
      "reading": {
        "pm25": 13.3,
        "pm10": 14.2,
        "temp": 23.8,
        "rh": 63.75,
        "noise": 48.72
      },
      "detailsUrl": "https://smartcitizen.me/kits/19600"
    },
    {
      "id": "sck-19618",
      "rawId": 19618,
      "source": "smartcitizen",
      "sourceLabel": "Smart Citizen",
      "name": "SCK-THREE@Jimbaran-2025",
      "lat": -8.79533,
      "lng": 115.14784,
      "lastReading": "2026-06-09T00:02:32Z",
      "reading": {
        "pm25": 13.7,
        "pm10": 13.7,
        "temp": 23.19,
        "rh": 61.11,
        "noise": 36.26
      },
      "detailsUrl": "https://smartcitizen.me/kits/19618"
    },
    {
      "id": "sck-19651",
      "rawId": 19651,
      "source": "smartcitizen",
      "sourceLabel": "Smart Citizen",
      "name": "Bali DIY Node — Office",
      "lat": -8.79314,
      "lng": 115.14467,
      "lastReading": "2026-06-09T00:05:44Z",
      "reading": {
        "pm25": 6.0,
        "pm10": 6.0,
        "temp": 28.92652,
        "rh": 45.66629,
        "noise": null
      },
      "detailsUrl": "https://smartcitizen.me/kits/19651"
    },
    {
      "id": "aqicn--519205",
      "rawId": -519205,
      "source": "aqicn",
      "sourceLabel": "AQICN",
      "name": "Kabupaten Badung Sempidi",
      "lat": -8.603890419006348,
      "lng": 115.1780014038086,
      "lastReading": "2026-06-08T23:00:00Z",
      "reading": {
        "pm25": 12.1,
        "pm10": null,
        "temp": null,
        "rh": null,
        "aqi": 51,
        "pm25_from_aqi": true
      },
      "detailsUrl": "https://aqicn.org/station/@519205"
    },
    {
      "id": "airgradient-77245",
      "rawId": 77245,
      "source": "airgradient",
      "sourceLabel": "AirGradient",
      "name": "Pemogan - Nafas",
      "lat": -8.707819,
      "lng": 115.205047,
      "offline": false,
      "lastReading": "2026-06-09T00:06:09.000Z",
      "reading": {
        "pm25": 0.0,
        "pm10": 0.0,
        "temp": 26.1,
        "rh": 59
      },
      "detailsUrl": "https://www.airgradient.com/map/"
    },
    {
      "id": "airgradient-77247",
      "rawId": 77247,
      "source": "airgradient",
      "sourceLabel": "AirGradient",
      "name": "Tonja - Nafas",
      "lat": -8.632781,
      "lng": 115.229004,
      "offline": false,
      "lastReading": "2026-06-09T00:06:20.000Z",
      "reading": {
        "pm25": 78.8,
        "pm10": 83.5,
        "temp": 26.2,
        "rh": 54
      },
      "detailsUrl": "https://www.airgradient.com/map/"
    }
  ]
}