{
  "generated_at": "2026-06-08T19:10:20.251315+00:00",
  "count": 7,
  "sensors": [
    {
      "id": "sck-19236",
      "rawId": 19236,
      "source": "smartcitizen",
      "sourceLabel": "Smart Citizen",
      "name": "SCK@Jimbaran-2025",
      "lat": -8.79352,
      "lng": 115.14482,
      "lastReading": "2026-06-08T19:08:48Z",
      "reading": {
        "pm25": 11.1,
        "pm10": 11.1,
        "temp": 25.35,
        "rh": 57.73,
        "noise": 41.9
      },
      "detailsUrl": "https://smartcitizen.me/kits/19236"
    },
    {
      "id": "sck-19600",
      "rawId": 19600,
      "source": "smartcitizen",
      "sourceLabel": "Smart Citizen",
      "name": "SCK-TWO@Jimbaran-2025",
      "lat": -8.79351,
      "lng": 115.14472,
      "lastReading": "2026-06-08T19:07:09Z",
      "reading": {
        "pm25": 8.7,
        "pm10": 8.7,
        "temp": 23.53,
        "rh": 62.39,
        "noise": 46.51
      },
      "detailsUrl": "https://smartcitizen.me/kits/19600"
    },
    {
      "id": "sck-19618",
      "rawId": 19618,
      "source": "smartcitizen",
      "sourceLabel": "Smart Citizen",
      "name": "SCK-THREE@Jimbaran-2025",
      "lat": -8.79533,
      "lng": 115.14784,
      "lastReading": "2026-06-08T19:07:08Z",
      "reading": {
        "pm25": 10.8,
        "pm10": 11.3,
        "temp": 23.58,
        "rh": 59.12,
        "noise": 51.66
      },
      "detailsUrl": "https://smartcitizen.me/kits/19618"
    },
    {
      "id": "sck-19651",
      "rawId": 19651,
      "source": "smartcitizen",
      "sourceLabel": "Smart Citizen",
      "name": "Bali DIY Node — Office",
      "lat": -8.79314,
      "lng": 115.14467,
      "lastReading": "2026-06-08T19:09:33Z",
      "reading": {
        "pm25": 6.0,
        "pm10": 6.0,
        "temp": 29.06284,
        "rh": 44.92275,
        "noise": null
      },
      "detailsUrl": "https://smartcitizen.me/kits/19651"
    },
    {
      "id": "aqicn--519205",
      "rawId": -519205,
      "source": "aqicn",
      "sourceLabel": "AQICN",
      "name": "Kabupaten Badung Sempidi",
      "lat": -8.603890419006348,
      "lng": 115.1780014038086,
      "lastReading": "2026-06-08T18:00:00Z",
      "reading": {
        "pm25": 12.0,
        "pm10": null,
        "temp": null,
        "rh": null,
        "aqi": 50,
        "pm25_from_aqi": true
      },
      "detailsUrl": "https://aqicn.org/station/@519205"
    },
    {
      "id": "airgradient-77245",
      "rawId": 77245,
      "source": "airgradient",
      "sourceLabel": "AirGradient",
      "name": "Pemogan - Nafas",
      "lat": -8.707819,
      "lng": 115.205047,
      "offline": false,
      "lastReading": "2026-06-08T19:09:45.000Z",
      "reading": {
        "pm25": 0.0,
        "pm10": 0.0,
        "temp": 26.3,
        "rh": 60
      },
      "detailsUrl": "https://www.airgradient.com/map/"
    },
    {
      "id": "airgradient-77247",
      "rawId": 77247,
      "source": "airgradient",
      "sourceLabel": "AirGradient",
      "name": "Tonja - Nafas",
      "lat": -8.632781,
      "lng": 115.229004,
      "offline": false,
      "lastReading": "2026-06-08T19:10:16.000Z",
      "reading": {
        "pm25": 100.8,
        "pm10": 113.0,
        "temp": 27.0,
        "rh": 56
      },
      "detailsUrl": "https://www.airgradient.com/map/"
    }
  ]
}