{
  "generated_at": "2026-06-08T21:46:35.494511+00:00",
  "count": 9,
  "sensors": [
    {
      "id": "sck-19236",
      "rawId": 19236,
      "source": "smartcitizen",
      "sourceLabel": "Smart Citizen",
      "name": "SCK@Jimbaran-2025",
      "lat": -8.79352,
      "lng": 115.14482,
      "lastReading": "2026-06-08T21:45:56Z",
      "reading": {
        "pm25": 8.5,
        "pm10": 9.0,
        "temp": 25.36,
        "rh": 58.0,
        "noise": 33.72
      },
      "detailsUrl": "https://smartcitizen.me/kits/19236"
    },
    {
      "id": "sck-19600",
      "rawId": 19600,
      "source": "smartcitizen",
      "sourceLabel": "Smart Citizen",
      "name": "SCK-TWO@Jimbaran-2025",
      "lat": -8.79351,
      "lng": 115.14472,
      "lastReading": "2026-06-08T21:44:17Z",
      "reading": {
        "pm25": 8.0,
        "pm10": 8.0,
        "temp": 23.99,
        "rh": 63.58,
        "noise": 47.77
      },
      "detailsUrl": "https://smartcitizen.me/kits/19600"
    },
    {
      "id": "sck-19618",
      "rawId": 19618,
      "source": "smartcitizen",
      "sourceLabel": "Smart Citizen",
      "name": "SCK-THREE@Jimbaran-2025",
      "lat": -8.79533,
      "lng": 115.14784,
      "lastReading": "2026-06-08T21:45:24Z",
      "reading": {
        "pm25": 8.7,
        "pm10": 9.3,
        "temp": 23.56,
        "rh": 60.37,
        "noise": 48.42
      },
      "detailsUrl": "https://smartcitizen.me/kits/19618"
    },
    {
      "id": "sck-19651",
      "rawId": 19651,
      "source": "smartcitizen",
      "sourceLabel": "Smart Citizen",
      "name": "Bali DIY Node — Office",
      "lat": -8.79314,
      "lng": 115.14467,
      "lastReading": "2026-06-08T21:45:39Z",
      "reading": {
        "pm25": 6.0,
        "pm10": 6.0,
        "temp": 28.99969,
        "rh": 45.45742,
        "noise": null
      },
      "detailsUrl": "https://smartcitizen.me/kits/19651"
    },
    {
      "id": "aqicn--519205",
      "rawId": -519205,
      "source": "aqicn",
      "sourceLabel": "AQICN",
      "name": "Kabupaten Badung Sempidi",
      "lat": -8.603890419006348,
      "lng": 115.1780014038086,
      "lastReading": "2026-06-08T21:00:00Z",
      "reading": {
        "pm25": 12.0,
        "pm10": null,
        "temp": null,
        "rh": null,
        "aqi": 50,
        "pm25_from_aqi": true
      },
      "detailsUrl": "https://aqicn.org/station/@519205"
    },
    {
      "id": "purpleair-36601",
      "rawId": 36601,
      "source": "purpleair",
      "sourceLabel": "PurpleAir",
      "name": "Jimbaran by Lumi Clinic",
      "lat": -8.791219,
      "lng": 115.1674,
      "lastReading": "2026-06-08T21:45:35+00:00",
      "reading": {
        "pm25": 0.5,
        "pm10": null,
        "temp": 30.0,
        "rh": 60
      },
      "detailsUrl": "https://map.purpleair.com/?select=36601"
    },
    {
      "id": "purpleair-46949",
      "rawId": 46949,
      "source": "purpleair",
      "sourceLabel": "PurpleAir",
      "name": "Klungkung by Lumi Clinic",
      "lat": -8.533623,
      "lng": 115.39973,
      "lastReading": "2026-06-08T21:46:14+00:00",
      "reading": {
        "pm25": 38.2,
        "pm10": null,
        "temp": 27.2,
        "rh": 60
      },
      "detailsUrl": "https://map.purpleair.com/?select=46949"
    },
    {
      "id": "airgradient-77245",
      "rawId": 77245,
      "source": "airgradient",
      "sourceLabel": "AirGradient",
      "name": "Pemogan - Nafas",
      "lat": -8.707819,
      "lng": 115.205047,
      "offline": false,
      "lastReading": "2026-06-08T21:46:02.000Z",
      "reading": {
        "pm25": 3.3,
        "pm10": 3.3,
        "temp": 25.4,
        "rh": 62
      },
      "detailsUrl": "https://www.airgradient.com/map/"
    },
    {
      "id": "airgradient-77247",
      "rawId": 77247,
      "source": "airgradient",
      "sourceLabel": "AirGradient",
      "name": "Tonja - Nafas",
      "lat": -8.632781,
      "lng": 115.229004,
      "offline": false,
      "lastReading": "2026-06-08T21:46:18.000Z",
      "reading": {
        "pm25": 71.5,
        "pm10": 79.0,
        "temp": 25.8,
        "rh": 57
      },
      "detailsUrl": "https://www.airgradient.com/map/"
    }
  ]
}