{
  "generated_at": "2026-06-09T01:16:24.980269+00:00",
  "count": 7,
  "sensors": [
    {
      "id": "sck-19236",
      "rawId": 19236,
      "source": "smartcitizen",
      "sourceLabel": "Smart Citizen",
      "name": "SCK@Jimbaran-2025",
      "lat": -8.79352,
      "lng": 115.14482,
      "lastReading": "2026-06-09T01:13:06Z",
      "reading": {
        "pm25": 16.5,
        "pm10": 17.8,
        "temp": 25.26,
        "rh": 60.6,
        "noise": 33.11
      },
      "detailsUrl": "https://smartcitizen.me/kits/19236"
    },
    {
      "id": "sck-19600",
      "rawId": 19600,
      "source": "smartcitizen",
      "sourceLabel": "Smart Citizen",
      "name": "SCK-TWO@Jimbaran-2025",
      "lat": -8.79351,
      "lng": 115.14472,
      "lastReading": "2026-06-09T01:14:30Z",
      "reading": {
        "pm25": 18.0,
        "pm10": 18.8,
        "temp": 24.16,
        "rh": 69.77,
        "noise": 52.48
      },
      "detailsUrl": "https://smartcitizen.me/kits/19600"
    },
    {
      "id": "sck-19618",
      "rawId": 19618,
      "source": "smartcitizen",
      "sourceLabel": "Smart Citizen",
      "name": "SCK-THREE@Jimbaran-2025",
      "lat": -8.79533,
      "lng": 115.14784,
      "lastReading": "2026-06-09T01:15:32Z",
      "reading": {
        "pm25": 17.3,
        "pm10": 17.3,
        "temp": 23.96,
        "rh": 65.21,
        "noise": 47.08
      },
      "detailsUrl": "https://smartcitizen.me/kits/19618"
    },
    {
      "id": "sck-19651",
      "rawId": 19651,
      "source": "smartcitizen",
      "sourceLabel": "Smart Citizen",
      "name": "Bali DIY Node — Office",
      "lat": -8.79314,
      "lng": 115.14467,
      "lastReading": "2026-06-09T01:15:47Z",
      "reading": {
        "pm25": 6.0,
        "pm10": 6.0,
        "temp": 29.11834,
        "rh": 49.73762,
        "noise": null
      },
      "detailsUrl": "https://smartcitizen.me/kits/19651"
    },
    {
      "id": "aqicn--519205",
      "rawId": -519205,
      "source": "aqicn",
      "sourceLabel": "AQICN",
      "name": "Kabupaten Badung Sempidi",
      "lat": -8.603890419006348,
      "lng": 115.1780014038086,
      "lastReading": "2026-06-09T01:00:00Z",
      "reading": {
        "pm25": 12.1,
        "pm10": null,
        "temp": null,
        "rh": null,
        "aqi": 51,
        "pm25_from_aqi": true
      },
      "detailsUrl": "https://aqicn.org/station/@519205"
    },
    {
      "id": "airgradient-77245",
      "rawId": 77245,
      "source": "airgradient",
      "sourceLabel": "AirGradient",
      "name": "Pemogan - Nafas",
      "lat": -8.707819,
      "lng": 115.205047,
      "offline": false,
      "lastReading": "2026-06-09T01:16:07.000Z",
      "reading": {
        "pm25": 0.0,
        "pm10": 0.0,
        "temp": 27.2,
        "rh": 58
      },
      "detailsUrl": "https://www.airgradient.com/map/"
    },
    {
      "id": "airgradient-77247",
      "rawId": 77247,
      "source": "airgradient",
      "sourceLabel": "AirGradient",
      "name": "Tonja - Nafas",
      "lat": -8.632781,
      "lng": 115.229004,
      "offline": false,
      "lastReading": "2026-06-09T01:16:22.000Z",
      "reading": {
        "pm25": 49.8,
        "pm10": 61.2,
        "temp": 28.0,
        "rh": 54
      },
      "detailsUrl": "https://www.airgradient.com/map/"
    }
  ]
}