{
  "generated_at": "2026-06-08T19:41:24.305092+00:00",
  "count": 8,
  "sensors": [
    {
      "id": "sck-19236",
      "rawId": 19236,
      "source": "smartcitizen",
      "sourceLabel": "Smart Citizen",
      "name": "SCK@Jimbaran-2025",
      "lat": -8.79352,
      "lng": 115.14482,
      "lastReading": "2026-06-08T19:39:48Z",
      "reading": {
        "pm25": 8.8,
        "pm10": 8.8,
        "temp": 25.43,
        "rh": 59.63,
        "noise": 36.04
      },
      "detailsUrl": "https://smartcitizen.me/kits/19236"
    },
    {
      "id": "sck-19600",
      "rawId": 19600,
      "source": "smartcitizen",
      "sourceLabel": "Smart Citizen",
      "name": "SCK-TWO@Jimbaran-2025",
      "lat": -8.79351,
      "lng": 115.14472,
      "lastReading": "2026-06-08T19:37:09Z",
      "reading": {
        "pm25": 8.7,
        "pm10": 8.7,
        "temp": 24.32,
        "rh": 62.94,
        "noise": 45.15
      },
      "detailsUrl": "https://smartcitizen.me/kits/19600"
    },
    {
      "id": "sck-19618",
      "rawId": 19618,
      "source": "smartcitizen",
      "sourceLabel": "Smart Citizen",
      "name": "SCK-THREE@Jimbaran-2025",
      "lat": -8.79533,
      "lng": 115.14784,
      "lastReading": "2026-06-08T19:39:11Z",
      "reading": {
        "pm25": 9.1,
        "pm10": 9.6,
        "temp": 24.59,
        "rh": 60.53,
        "noise": 36.89
      },
      "detailsUrl": "https://smartcitizen.me/kits/19618"
    },
    {
      "id": "sck-19651",
      "rawId": 19651,
      "source": "smartcitizen",
      "sourceLabel": "Smart Citizen",
      "name": "Bali DIY Node — Office",
      "lat": -8.79314,
      "lng": 115.14467,
      "lastReading": "2026-06-08T19:40:34Z",
      "reading": {
        "pm25": 6.0,
        "pm10": 6.0,
        "temp": 29.45415,
        "rh": 46.31498,
        "noise": null
      },
      "detailsUrl": "https://smartcitizen.me/kits/19651"
    },
    {
      "id": "aqicn--519205",
      "rawId": -519205,
      "source": "aqicn",
      "sourceLabel": "AQICN",
      "name": "Kabupaten Badung Sempidi",
      "lat": -8.603890419006348,
      "lng": 115.1780014038086,
      "lastReading": "2026-06-08T19:00:00Z",
      "reading": {
        "pm25": 11.8,
        "pm10": null,
        "temp": null,
        "rh": null,
        "aqi": 49,
        "pm25_from_aqi": true
      },
      "detailsUrl": "https://aqicn.org/station/@519205"
    },
    {
      "id": "purpleair-36601",
      "rawId": 36601,
      "source": "purpleair",
      "sourceLabel": "PurpleAir",
      "name": "Jimbaran by Lumi Clinic",
      "lat": -8.791219,
      "lng": 115.1674,
      "lastReading": "2026-06-08T19:39:32+00:00",
      "reading": {
        "pm25": 0.7,
        "pm10": null,
        "temp": 30.6,
        "rh": 57
      },
      "detailsUrl": "https://map.purpleair.com/?select=36601"
    },
    {
      "id": "purpleair-46949",
      "rawId": 46949,
      "source": "purpleair",
      "sourceLabel": "PurpleAir",
      "name": "Klungkung by Lumi Clinic",
      "lat": -8.533623,
      "lng": 115.39973,
      "lastReading": "2026-06-08T19:40:11+00:00",
      "reading": {
        "pm25": 42.9,
        "pm10": null,
        "temp": 28.3,
        "rh": 60
      },
      "detailsUrl": "https://map.purpleair.com/?select=46949"
    },
    {
      "id": "airgradient-77247",
      "rawId": 77247,
      "source": "airgradient",
      "sourceLabel": "AirGradient",
      "name": "Tonja - Nafas",
      "lat": -8.632781,
      "lng": 115.229004,
      "offline": false,
      "lastReading": "2026-06-08T19:41:16.000Z",
      "reading": {
        "pm25": 77.3,
        "pm10": 83.0,
        "temp": 26.9,
        "rh": 56
      },
      "detailsUrl": "https://www.airgradient.com/map/"
    }
  ]
}