{
  "generated_at": "2026-06-08T23:19:55.129765+00:00",
  "count": 9,
  "sensors": [
    {
      "id": "sck-19236",
      "rawId": 19236,
      "source": "smartcitizen",
      "sourceLabel": "Smart Citizen",
      "name": "SCK@Jimbaran-2025",
      "lat": -8.79352,
      "lng": 115.14482,
      "lastReading": "2026-06-08T23:16:02Z",
      "reading": {
        "pm25": 11.0,
        "pm10": 11.0,
        "temp": 25.42,
        "rh": 58.0,
        "noise": 33.73
      },
      "detailsUrl": "https://smartcitizen.me/kits/19236"
    },
    {
      "id": "sck-19600",
      "rawId": 19600,
      "source": "smartcitizen",
      "sourceLabel": "Smart Citizen",
      "name": "SCK-TWO@Jimbaran-2025",
      "lat": -8.79351,
      "lng": 115.14472,
      "lastReading": "2026-06-08T23:17:24Z",
      "reading": {
        "pm25": 12.4,
        "pm10": 12.4,
        "temp": 23.87,
        "rh": 64.14,
        "noise": 44.57
      },
      "detailsUrl": "https://smartcitizen.me/kits/19600"
    },
    {
      "id": "sck-19618",
      "rawId": 19618,
      "source": "smartcitizen",
      "sourceLabel": "Smart Citizen",
      "name": "SCK-THREE@Jimbaran-2025",
      "lat": -8.79533,
      "lng": 115.14784,
      "lastReading": "2026-06-08T23:16:28Z",
      "reading": {
        "pm25": 9.9,
        "pm10": 9.9,
        "temp": 23.9,
        "rh": 60.21,
        "noise": 36.78
      },
      "detailsUrl": "https://smartcitizen.me/kits/19618"
    },
    {
      "id": "sck-19651",
      "rawId": 19651,
      "source": "smartcitizen",
      "sourceLabel": "Smart Citizen",
      "name": "Bali DIY Node — Office",
      "lat": -8.79314,
      "lng": 115.14467,
      "lastReading": "2026-06-08T23:19:43Z",
      "reading": {
        "pm25": 6.0,
        "pm10": 6.0,
        "temp": 29.21935,
        "rh": 45.92782,
        "noise": null
      },
      "detailsUrl": "https://smartcitizen.me/kits/19651"
    },
    {
      "id": "aqicn--519205",
      "rawId": -519205,
      "source": "aqicn",
      "sourceLabel": "AQICN",
      "name": "Kabupaten Badung Sempidi",
      "lat": -8.603890419006348,
      "lng": 115.1780014038086,
      "lastReading": "2026-06-08T23:00:00Z",
      "reading": {
        "pm25": 12.1,
        "pm10": null,
        "temp": null,
        "rh": null,
        "aqi": 51,
        "pm25_from_aqi": true
      },
      "detailsUrl": "https://aqicn.org/station/@519205"
    },
    {
      "id": "purpleair-36601",
      "rawId": 36601,
      "source": "purpleair",
      "sourceLabel": "PurpleAir",
      "name": "Jimbaran by Lumi Clinic",
      "lat": -8.791219,
      "lng": 115.1674,
      "lastReading": "2026-06-08T23:17:37+00:00",
      "reading": {
        "pm25": 1.1,
        "pm10": null,
        "temp": 30.6,
        "rh": 62
      },
      "detailsUrl": "https://map.purpleair.com/?select=36601"
    },
    {
      "id": "purpleair-46949",
      "rawId": 46949,
      "source": "purpleair",
      "sourceLabel": "PurpleAir",
      "name": "Klungkung by Lumi Clinic",
      "lat": -8.533623,
      "lng": 115.39973,
      "lastReading": "2026-06-08T23:18:16+00:00",
      "reading": {
        "pm25": 45.4,
        "pm10": null,
        "temp": 27.2,
        "rh": 60
      },
      "detailsUrl": "https://map.purpleair.com/?select=46949"
    },
    {
      "id": "airgradient-77245",
      "rawId": 77245,
      "source": "airgradient",
      "sourceLabel": "AirGradient",
      "name": "Pemogan - Nafas",
      "lat": -8.707819,
      "lng": 115.205047,
      "offline": false,
      "lastReading": "2026-06-08T23:19:04.000Z",
      "reading": {
        "pm25": 9.5,
        "pm10": 9.5,
        "temp": 25.6,
        "rh": 61
      },
      "detailsUrl": "https://www.airgradient.com/map/"
    },
    {
      "id": "airgradient-77247",
      "rawId": 77247,
      "source": "airgradient",
      "sourceLabel": "AirGradient",
      "name": "Tonja - Nafas",
      "lat": -8.632781,
      "lng": 115.229004,
      "offline": false,
      "lastReading": "2026-06-08T23:19:20.000Z",
      "reading": {
        "pm25": 79.8,
        "pm10": 83.3,
        "temp": 25.3,
        "rh": 56
      },
      "detailsUrl": "https://www.airgradient.com/map/"
    }
  ]
}